{
   "type": "FeatureCollection",
   "features": [
  {
    "type": "Feature",
    "geometry": {
       "type": "Point",
       "coordinates":  [ 121.565487,25.065105 ]
    },
    "properties": {
    "區別":"松山區",
    "里別":"莊敬里",
    "地址":"臺北市松山區莊敬里撫遠街394之1號"
    }
  },
  {
    "type": "Feature",
    "geometry": {
       "type": "Point",
       "coordinates":  [ 121.558138,25.059082 ]
    },
    "properties": {
    "區別":"松山區",
    "里別":"東榮里",
    "地址":"臺北市松山區東榮里民生東路5段69巷3號"
    }
  },
  {
    "type": "Feature",
    "geometry": {
       "type": "Point",
       "coordinates":  [ 121.564719,25.061169 ]
    },
    "properties": {
    "區別":"松山區",
    "里別":"富錦里",
    "地址":"臺北市松山區富錦里富錦街515號"
    }
  },
  {
    "type": "Feature",
    "geometry": {
       "type": "Point",
       "coordinates":  [ 121.568955,25.057411 ]
    },
    "properties": {
    "區別":"松山區",
    "里別":"新東里",
    "地址":"臺北市松山區新東里延壽街3號1樓"
    }
  },
  {
    "type": "Feature",
    "geometry": {
       "type": "Point",
       "coordinates":  [ 121.563905,25.057981 ]
    },
    "properties": {
    "區別":"松山區",
    "里別":"富泰里",
    "地址":"臺北市松山區富泰里三民路108號之18、19"
    }
  },
  {
    "type": "Feature",
    "geometry": {
       "type": "Point",
       "coordinates":  [ 121.559382,25.057769 ]
    },
    "properties": {
    "區別":"松山區",
    "里別":"介壽里",
    "地址":"臺北市松山區介壽里民生東路5段36巷4弄6號"
    }
  },
  {
    "type": "Feature",
    "geometry": {
       "type": "Point",
       "coordinates":  [ 121.555264,25.056599 ]
    },
    "properties": {
    "區別":"松山區",
    "里別":"東昌里",
    "地址":"臺北市松山區東昌里民生東路4段112巷7弄24號"
    }
  },
  {
    "type": "Feature",
    "geometry": {
       "type": "Point",
       "coordinates":  [ 121.554967,25.053186 ]
    },
    "properties": {
    "區別":"松山區",
    "里別":"東勢里",
    "地址":"臺北市松山區東勢里南京東路4段133巷8弄4號"
    }
  },
  {
    "type": "Feature",
    "geometry": {
       "type": "Point",
       "coordinates":  [ 121.545237,25.062895 ]
    },
    "properties": {
    "區別":"松山區",
    "里別":"民福里",
    "地址":"臺北市松山區民福里民權東路3段103巷5弄5號"
    }
  },
  {
    "type": "Feature",
    "geometry": {
       "type": "Point",
       "coordinates":  [ 121.562978,25.05044 ]
    },
    "properties": {
    "區別":"松山區",
    "里別":"吉祥里",
    "地址":"臺北市松山區吉祥里八德路4段245巷52弄23號"
    }
  },
  {
    "type": "Feature",
    "geometry": {
       "type": "Point",
       "coordinates":  [ 121.565765,25.049936 ]
    },
    "properties": {
    "區別":"松山區",
    "里別":"新聚里",
    "地址":"臺北市松山區新聚里南京東路5段250巷9之8號"
    }
  },
  {
    "type": "Feature",
    "geometry": {
       "type": "Point",
       "coordinates":  [ 121.553537,25.049032 ]
    },
    "properties": {
    "區別":"松山區",
    "里別":"美仁里",
    "地址":"臺北市松山區美仁里八德路3段99巷12之8號"
    }
  },
  {
    "type": "Feature",
    "geometry": {
       "type": "Point",
       "coordinates":  [ 121.551662,25.046107 ]
    },
    "properties": {
    "區別":"松山區",
    "里別":"敦化里",
    "地址":"臺北市松山區敦化里八德路3段12巷51弄30號"
    }
  },
  {
    "type": "Feature",
    "geometry": {
       "type": "Point",
       "coordinates":  [ 121.555085,25.047527 ]
    },
    "properties": {
    "區別":"松山區",
    "里別":"復源里",
    "地址":"臺北市松山區復源里八德路3段158巷12號"
    }
  },
  {
    "type": "Feature",
    "geometry": {
       "type": "Point",
       "coordinates":  [ 121.557144,25.050897 ]
    },
    "properties": {
    "區別":"松山區",
    "里別":"復勢里",
    "地址":"臺北市松山區復勢里光復北路120巷16號"
    }
  },
  {
    "type": "Feature",
    "geometry": {
       "type": "Point",
       "coordinates":  [ 121.547784,25.045423 ]
    },
    "properties": {
    "區別":"松山區",
    "里別":"福成里",
    "地址":"臺北市松山區福成里敦化南路1段100巷5弄4號"
    }
  },
  {
    "type": "Feature",
    "geometry": {
       "type": "Point",
       "coordinates":  [ 121.558023,25.031217 ]
    },
    "properties": {
    "區別":"信義區",
    "里別":"中興里",
    "地址":"臺北市信義區中興里嘉興街58號"
    }
  },
  {
    "type": "Feature",
    "geometry": {
       "type": "Point",
       "coordinates":  [ 121.563214,25.043923 ]
    },
    "properties": {
    "區別":"信義區",
    "里別":"新仁里",
    "地址":"臺北市信義區新仁里忠孝東路4段553巷22弄21號"
    }
  },
  {
    "type": "Feature",
    "geometry": {
       "type": "Point",
       "coordinates":  [ 121.567159,25.043102 ]
    },
    "properties": {
    "區別":"信義區",
    "里別":"興雅里",
    "地址":"臺北市信義區興雅里松隆路26號"
    }
  },
  {
    "type": "Feature",
    "geometry": {
       "type": "Point",
       "coordinates":  [ 121.568253,25.043633 ]
    },
    "properties": {
    "區別":"信義區",
    "里別":"敦厚里",
    "地址":"臺北市信義區敦厚里永吉路30巷102弄14號"
    }
  },
  {
    "type": "Feature",
    "geometry": {
       "type": "Point",
       "coordinates":  [ 121.576452,25.039831 ]
    },
    "properties": {
    "區別":"信義區",
    "里別":"廣居里",
    "地址":"臺北市信義區廣居里忠孝東路5段372巷27弄75-1號"
    }
  },
  {
    "type": "Feature",
    "geometry": {
       "type": "Point",
       "coordinates":  [ 121.576129,25.035852 ]
    },
    "properties": {
    "區別":"信義區",
    "里別":"安康里",
    "地址":"臺北市信義區安康里虎林街232巷55號"
    }
  },
  {
    "type": "Feature",
    "geometry": {
       "type": "Point",
       "coordinates":  [ 121.571391,25.044616 ]
    },
    "properties": {
    "區別":"信義區",
    "里別":"六藝里",
    "地址":"臺北市信義區六藝里永吉路180巷30號"
    }
  },
  {
    "type": "Feature",
    "geometry": {
       "type": "Point",
       "coordinates":  [ 121.571422,25.048018 ]
    },
    "properties": {
    "區別":"信義區",
    "里別":"雅祥里",
    "地址":"臺北市信義區雅祥里基隆路1段35巷7弄35號"
    }
  },
  {
    "type": "Feature",
    "geometry": {
       "type": "Point",
       "coordinates":  [ 121.573005,25.046504 ]
    },
    "properties": {
    "區別":"信義區",
    "里別":"五常里",
    "地址":"臺北市信義區五常里永吉路187巷6弄6號"
    }
  },
  {
    "type": "Feature",
    "geometry": {
       "type": "Point",
       "coordinates":  [ 121.574582,25.045023 ]
    },
    "properties": {
    "區別":"信義區",
    "里別":"五全里",
    "地址":"臺北市信義區五全里永吉路278巷1弄13號"
    }
  },
  {
    "type": "Feature",
    "geometry": {
       "type": "Point",
       "coordinates":  [ 121.576551,25.041251 ]
    },
    "properties": {
    "區別":"信義區",
    "里別":"富台里",
    "地址":"臺北市信義區忠孝東路5段423巷4弄22號1樓"
    }
  },
  {
    "type": "Feature",
    "geometry": {
       "type": "Point",
       "coordinates":  [ 121.576783,25.04425 ]
    },
    "properties": {
    "區別":"信義區",
    "里別":"四維里",
    "地址":"臺北市信義區四維里虎林街70巷1號"
    }
  },
  {
    "type": "Feature",
    "geometry": {
       "type": "Point",
       "coordinates":  [ 121.578311,25.043485 ]
    },
    "properties": {
    "區別":"信義區",
    "里別":"永春里",
    "地址":"臺北市信義區永春里松山路287巷3弄21號"
    }
  },
  {
    "type": "Feature",
    "geometry": {
       "type": "Point",
       "coordinates":  [ 121.577014,25.037107 ]
    },
    "properties": {
    "區別":"信義區",
    "里別":"國業里",
    "地址":"臺北市信義區國業里虎林街222巷15號"
    }
  },
  {
    "type": "Feature",
    "geometry": {
       "type": "Point",
       "coordinates":  [ 121.576136,25.034396 ]
    },
    "properties": {
    "區別":"信義區",
    "里別":"松友里",
    "地址":"臺北市信義區松友里信義路6段76巷2弄22號"
    }
  },
  {
    "type": "Feature",
    "geometry": {
       "type": "Point",
       "coordinates":  [ 121.578303,25.039735 ]
    },
    "properties": {
    "區別":"信義區",
    "里別":"松光里",
    "地址":"臺北市信義區松光里忠孝東路5段492巷32號"
    }
  },
  {
    "type": "Feature",
    "geometry": {
       "type": "Point",
       "coordinates":  [ 121.582584,25.037406 ]
    },
    "properties": {
    "區別":"信義區",
    "里別":"中坡里",
    "地址":"臺北市信義區中坡里福德街127號1樓"
    }
  },
  {
    "type": "Feature",
    "geometry": {
       "type": "Point",
       "coordinates":  [ 121.585754,25.039891 ]
    },
    "properties": {
    "區別":"信義區",
    "里別":"中行里",
    "地址":"臺北市信義區中行里福德街268巷32號"
    }
  },
  {
    "type": "Feature",
    "geometry": {
       "type": "Point",
       "coordinates":  [ 121.58309,25.041093 ]
    },
    "properties": {
    "區別":"信義區",
    "里別":"大道里",
    "地址":"臺北市信義區大道里忠孝東路5段790巷62弄4號"
    }
  },
  {
    "type": "Feature",
    "geometry": {
       "type": "Point",
       "coordinates":  [ 121.561237,25.036325 ]
    },
    "properties": {
    "區別":"信義區",
    "里別":"興隆里",
    "地址":"臺北市信義區基隆路1段350-23號1樓"
    }
  },
  {
    "type": "Feature",
    "geometry": {
       "type": "Point",
       "coordinates":  [ 121.562049,25.031026 ]
    },
    "properties": {
    "區別":"信義區",
    "里別":"景新里",
    "地址":"臺北市信義區景新里松勤街56號"
    }
  },
  {
    "type": "Feature",
    "geometry": {
       "type": "Point",
       "coordinates":  [ 121.569424,25.028412 ]
    },
    "properties": {
    "區別":"信義區",
    "里別":"三犁里",
    "地址":"臺北市信義區三犁里信義路5段150巷14弄6號"
    }
  },
  {
    "type": "Feature",
    "geometry": {
       "type": "Point",
       "coordinates":  [ 121.570082,25.021287 ]
    },
    "properties": {
    "區別":"信義區",
    "里別":"泰和里",
    "地址":"臺北市信義區泰和里松仁路308巷60號"
    }
  },
  {
    "type": "Feature",
    "geometry": {
       "type": "Point",
       "coordinates":  [ 121.560425,25.030137 ]
    },
    "properties": {
    "區別":"信義區",
    "里別":"景聯里",
    "地址":"臺北市信義區景聯里吳興街106巷9號"
    }
  },
  {
    "type": "Feature",
    "geometry": {
       "type": "Point",
       "coordinates":  [ 121.563006,25.024237 ]
    },
    "properties": {
    "區別":"信義區",
    "里別":"雙和里",
    "地址":"臺北市信義區雙和里吳興街284巷24弄16號"
    }
  },
  {
    "type": "Feature",
    "geometry": {
       "type": "Point",
       "coordinates":  [ 121.557578,25.027587 ]
    },
    "properties": {
    "區別":"信義區",
    "里別":"嘉興里",
    "地址":"臺北市信義區嘉興里嘉興街175巷6號"
    }
  },
  {
    "type": "Feature",
    "geometry": {
       "type": "Point",
       "coordinates":  [ 121.553494,25.024415 ]
    },
    "properties": {
    "區別":"信義區",
    "里別":"黎順里",
    "地址":"臺北市信義區黎順里崇德街15號"
    }
  },
  {
    "type": "Feature",
    "geometry": {
       "type": "Point",
       "coordinates":  [ 121.557259,25.022591 ]
    },
    "properties": {
    "區別":"信義區",
    "里別":"黎平里",
    "地址":"臺北市信義區黎平里富陽街55巷9號"
    }
  },
  {
    "type": "Feature",
    "geometry": {
       "type": "Point",
       "coordinates":  [ 121.534087,25.026946 ]
    },
    "properties": {
    "區別":"大安區",
    "里別":"龍安里",
    "地址":"臺北市大安區龍安里和平東路1段199巷4之9號"
    }
  },
  {
    "type": "Feature",
    "geometry": {
       "type": "Point",
       "coordinates":  [ 121.530137,25.030045 ]
    },
    "properties": {
    "區別":"大安區",
    "里別":"福住里",
    "地址":"臺北市大安區福住里永康街47巷10之1號"
    }
  },
  {
    "type": "Feature",
    "geometry": {
       "type": "Point",
       "coordinates":  [ 121.528419,25.030562 ]
    },
    "properties": {
    "區別":"大安區",
    "里別":"永康里",
    "地址":"臺北市大安區永康里金華街199巷3弄6號"
    }
  },
  {
    "type": "Feature",
    "geometry": {
       "type": "Point",
       "coordinates":  [ 121.525788,25.033799 ]
    },
    "properties": {
    "區別":"大安區",
    "里別":"光明里",
    "地址":"臺北市大安區光明里信義路2段86巷26號"
    }
  },
  {
    "type": "Feature",
    "geometry": {
       "type": "Point",
       "coordinates":  [ 121.522788,25.029752 ]
    },
    "properties": {
    "區別":"大安區",
    "里別":"錦泰里",
    "地址":"臺北市大安區錦泰里杭州南路2段65巷10號"
    }
  },
  {
    "type": "Feature",
    "geometry": {
       "type": "Point",
       "coordinates":  [ 121.522176,25.028609 ]
    },
    "properties": {
    "區別":"大安區",
    "里別":"錦華里",
    "地址":"臺北市大安區錦華里杭州南路2段93巷1之1號"
    }
  },
  {
    "type": "Feature",
    "geometry": {
       "type": "Point",
       "coordinates":  [ 121.542453,25.024351 ]
    },
    "properties": {
    "區別":"大安區",
    "里別":"龍淵里",
    "地址":"臺北市大安區龍淵里和平東路2段118巷2弄6號"
    }
  },
  {
    "type": "Feature",
    "geometry": {
       "type": "Point",
       "coordinates":  [ 121.532703,25.019917 ]
    },
    "properties": {
    "區別":"大安區",
    "里別":"大學里",
    "地址":"臺北市大安區大學里溫州街74巷2弄4號"
    }
  },
  {
    "type": "Feature",
    "geometry": {
       "type": "Point",
       "coordinates":  [ 121.545019,25.035056 ]
    },
    "properties": {
    "區別":"大安區",
    "里別":"仁慈里",
    "地址":"臺北市大安區仁慈里復興南路1段295巷18號"
    }
  },
  {
    "type": "Feature",
    "geometry": {
       "type": "Point",
       "coordinates":  [ 121.538343,25.03238 ]
    },
    "properties": {
    "區別":"大安區",
    "里別":"龍圖里",
    "地址":"臺北市大安區龍圖里建國南路2段25巷6號"
    }
  },
  {
    "type": "Feature",
    "geometry": {
       "type": "Point",
       "coordinates":  [ 121.545187,25.028724 ]
    },
    "properties": {
    "區別":"大安區",
    "里別":"龍雲里",
    "地址":"臺北市大安區龍雲里大安路2段160巷24號"
    }
  },
  {
    "type": "Feature",
    "geometry": {
       "type": "Point",
       "coordinates":  [ 121.545634,25.032013 ]
    },
    "properties": {
    "區別":"大安區",
    "里別":"住安里",
    "地址":"臺北市大安區住安里信義路4段30巷27弄23號"
    }
  },
  {
    "type": "Feature",
    "geometry": {
       "type": "Point",
       "coordinates":  [ 121.542451,25.044272 ]
    },
    "properties": {
    "區別":"大安區",
    "里別":"誠安里",
    "地址":"臺北市大安區誠安里安東街28號"
    }
  },
  {
    "type": "Feature",
    "geometry": {
       "type": "Point",
       "coordinates":  [ 121.547629,25.043468 ]
    },
    "properties": {
    "區別":"大安區",
    "里別":"光武里",
    "地址":"臺北市大安區光武里敦化南路1段160巷20號"
    }
  },
  {
    "type": "Feature",
    "geometry": {
       "type": "Point",
       "coordinates":  [ 121.555311,25.031739 ]
    },
    "properties": {
    "區別":"大安區",
    "里別":"通化里",
    "地址":"臺北市大安區通化里通化街19巷19號"
    }
  },
  {
    "type": "Feature",
    "geometry": {
       "type": "Point",
       "coordinates":  [ 121.555956,25.028425 ]
    },
    "properties": {
    "區別":"大安區",
    "里別":"臨江里",
    "地址":"臺北市大安區臨江里通化街143巷33號"
    }
  },
  {
    "type": "Feature",
    "geometry": {
       "type": "Point",
       "coordinates":  [ 121.553338,25.026681 ]
    },
    "properties": {
    "區別":"大安區",
    "里別":"法治里",
    "地址":"臺北市大安區法治里通化街201號"
    }
  },
  {
    "type": "Feature",
    "geometry": {
       "type": "Point",
       "coordinates":  [ 121.55137,25.02609 ]
    },
    "properties": {
    "區別":"大安區",
    "里別":"全安里",
    "地址":"臺北市大安區全安里和平東路3段119巷25號1樓"
    }
  },
  {
    "type": "Feature",
    "geometry": {
       "type": "Point",
       "coordinates":  [ 121.555704,25.033728 ]
    },
    "properties": {
    "區別":"大安區",
    "里別":"敦煌里",
    "地址":"臺北市大安區敦煌里信義路4段265巷21弄22號1樓"
    }
  },
  {
    "type": "Feature",
    "geometry": {
       "type": "Point",
       "coordinates":  [ 121.545971,25.025558 ]
    },
    "properties": {
    "區別":"大安區",
    "里別":"群賢里",
    "地址":"臺北市大安區群賢里和平東路2段311巷43弄36號"
    }
  },
  {
    "type": "Feature",
    "geometry": {
       "type": "Point",
       "coordinates":  [ 121.547894,25.024312 ]
    },
    "properties": {
    "區別":"大安區",
    "里別":"虎嘯里",
    "地址":"臺北市大安區虎嘯里和平東路3段46之5號"
    }
  },
  {
    "type": "Feature",
    "geometry": {
       "type": "Point",
       "coordinates":  [ 121.543815,25.0237 ]
    },
    "properties": {
    "區別":"大安區",
    "里別":"臥龍里",
    "地址":"臺北市大安區臥龍里復興南路2段329之1號"
    }
  },
  {
    "type": "Feature",
    "geometry": {
       "type": "Point",
       "coordinates":  [ 121.552017,25.017922 ]
    },
    "properties": {
    "區別":"大安區",
    "里別":"黎元里",
    "地址":"臺北市大安區黎元里臥龍街187號"
    }
  },
  {
    "type": "Feature",
    "geometry": {
       "type": "Point",
       "coordinates":  [ 121.555981,25.018704 ]
    },
    "properties": {
    "區別":"大安區",
    "里別":"黎孝里",
    "地址":"臺北市大安區黎孝里臥龍街267之10號"
    }
  },
  {
    "type": "Feature",
    "geometry": {
       "type": "Point",
       "coordinates":  [ 121.556813,25.019653 ]
    },
    "properties": {
    "區別":"大安區",
    "里別":"黎和里",
    "地址":"臺北市大安區黎和里富陽街111號"
    }
  },
  {
    "type": "Feature",
    "geometry": {
       "type": "Point",
       "coordinates":  [ 121.527443,25.050696 ]
    },
    "properties": {
    "區別":"中山區",
    "里別":"正義里",
    "地址":"臺北市中山區正義里林森北路133巷78號"
    }
  },
  {
    "type": "Feature",
    "geometry": {
       "type": "Point",
       "coordinates":  [ 121.523851,25.055805 ]
    },
    "properties": {
    "區別":"中山區",
    "里別":"中山里",
    "地址":"臺北市中山區中山里中山北路2段59巷18號1樓"
    }
  },
  {
    "type": "Feature",
    "geometry": {
       "type": "Point",
       "coordinates":  [ 121.520587,25.061127 ]
    },
    "properties": {
    "區別":"中山區",
    "里別":"集英里",
    "地址":"臺北市中山區集英里天祥路16巷12號"
    }
  },
  {
    "type": "Feature",
    "geometry": {
       "type": "Point",
       "coordinates":  [ 121.524796,25.061748 ]
    },
    "properties": {
    "區別":"中山區",
    "里別":"聚葉里",
    "地址":"臺北市中山區聚葉里中山北路2段137巷35號"
    }
  },
  {
    "type": "Feature",
    "geometry": {
       "type": "Point",
       "coordinates":  [ 121.52394,25.063797 ]
    },
    "properties": {
    "區別":"中山區",
    "里別":"恆安里",
    "地址":"臺北市中山區恆安里中山北路2段183巷9號1樓"
    }
  },
  {
    "type": "Feature",
    "geometry": {
       "type": "Point",
       "coordinates":  [ 121.522999,25.065385 ]
    },
    "properties": {
    "區別":"中山區",
    "里別":"晴光里",
    "地址":"臺北市中山區晴光里雙城街18巷20號"
    }
  },
  {
    "type": "Feature",
    "geometry": {
       "type": "Point",
       "coordinates":  [ 121.526389,25.067028 ]
    },
    "properties": {
    "區別":"中山區",
    "里別":"圓山里",
    "地址":"臺北市中山區圓山里新生北路3段82巷32號"
    }
  },
  {
    "type": "Feature",
    "geometry": {
       "type": "Point",
       "coordinates":  [ 121.531854,25.06571 ]
    },
    "properties": {
    "區別":"中山區",
    "里別":"新喜里",
    "地址":"臺北市中山區新喜里德惠街170巷19號"
    }
  },
  {
    "type": "Feature",
    "geometry": {
       "type": "Point",
       "coordinates":  [ 121.529948,25.066165 ]
    },
    "properties": {
    "區別":"中山區",
    "里別":"新庄里",
    "地址":"臺北市中山區新庄里農安街125巷43號"
    }
  },
  {
    "type": "Feature",
    "geometry": {
       "type": "Point",
       "coordinates":  [ 121.529271,25.060905 ]
    },
    "properties": {
    "區別":"中山區",
    "里別":"新生里",
    "地址":"臺北市中山區新生里新生北路2段133巷45號"
    }
  },
  {
    "type": "Feature",
    "geometry": {
       "type": "Point",
       "coordinates":  [ 121.547548,25.081283 ]
    },
    "properties": {
    "區別":"中山區",
    "里別":"大直里",
    "地址":"臺北市中山區大直里北安路573巷6號"
    }
  },
  {
    "type": "Feature",
    "geometry": {
       "type": "Point",
       "coordinates":  [ 121.546531,25.077576 ]
    },
    "properties": {
    "區別":"中山區",
    "里別":"永安里",
    "地址":"臺北市中山區永安里明水路389號"
    }
  },
  {
    "type": "Feature",
    "geometry": {
       "type": "Point",
       "coordinates":  [ 121.534614,25.059527 ]
    },
    "properties": {
    "區別":"中山區",
    "里別":"松江里",
    "地址":"臺北市中山區松江里松江路259巷34號"
    }
  },
  {
    "type": "Feature",
    "geometry": {
       "type": "Point",
       "coordinates":  [ 121.534394,25.063753 ]
    },
    "properties": {
    "區別":"中山區",
    "里別":"行政里",
    "地址":"臺北市中山區行政里民權東路2段135巷20弄18號"
    }
  },
  {
    "type": "Feature",
    "geometry": {
       "type": "Point",
       "coordinates":  [ 121.539331,25.066752 ]
    },
    "properties": {
    "區別":"中山區",
    "里別":"行仁里",
    "地址":"臺北市中山區行仁里民族東路410巷23弄18號"
    }
  },
  {
    "type": "Feature",
    "geometry": {
       "type": "Point",
       "coordinates":  [ 121.538326,25.059578 ]
    },
    "properties": {
    "區別":"中山區",
    "里別":"江山里",
    "地址":"臺北市中山區江山里合江街130巷17號"
    }
  },
  {
    "type": "Feature",
    "geometry": {
       "type": "Point",
       "coordinates":  [ 121.530991,25.057513 ]
    },
    "properties": {
    "區別":"中山區",
    "里別":"中吉里",
    "地址":"臺北市中山區中吉里松江路204巷65號"
    }
  },
  {
    "type": "Feature",
    "geometry": {
       "type": "Point",
       "coordinates":  [ 121.535407,25.054071 ]
    },
    "properties": {
    "區別":"中山區",
    "里別":"中央里",
    "地址":"臺北市中山區中央里伊通街125巷11之1號"
    }
  },
  {
    "type": "Feature",
    "geometry": {
       "type": "Point",
       "coordinates":  [ 121.542633,25.056372 ]
    },
    "properties": {
    "區別":"中山區",
    "里別":"龍洲里",
    "地址":"臺北市中山區龍洲里興安街59號"
    }
  },
  {
    "type": "Feature",
    "geometry": {
       "type": "Point",
       "coordinates":  [ 121.540825,25.054346 ]
    },
    "properties": {
    "區別":"中山區",
    "里別":"復華里",
    "地址":"臺北市中山區復華里龍江路155巷5號"
    }
  },
  {
    "type": "Feature",
    "geometry": {
       "type": "Point",
       "coordinates":  [ 121.542943,25.048707 ]
    },
    "properties": {
    "區別":"中山區",
    "里別":"力行里",
    "地址":"臺北市中山區力行里遼寧街45巷24號1樓"
    }
  },
  {
    "type": "Feature",
    "geometry": {
       "type": "Point",
       "coordinates":  [ 121.525199,25.016698 ]
    },
    "properties": {
    "區別":"中正區",
    "里別":"林興里",
    "地址":"臺北市中正區林興里水源路21號"
    }
  },
  {
    "type": "Feature",
    "geometry": {
       "type": "Point",
       "coordinates":  [ 121.523477,25.021773 ]
    },
    "properties": {
    "區別":"中正區",
    "里別":"河堤里",
    "地址":"臺北市中正區河堤里金門街11之1號"
    }
  },
  {
    "type": "Feature",
    "geometry": {
       "type": "Point",
       "coordinates":  [ 121.52433,25.022466 ]
    },
    "properties": {
    "區別":"中正區",
    "里別":"頂東里",
    "地址":"臺北市中正區中正區金門街7之9號"
    }
  },
  {
    "type": "Feature",
    "geometry": {
       "type": "Point",
       "coordinates":  [ 121.519133,25.021841 ]
    },
    "properties": {
    "區別":"中正區",
    "里別":"網溪里",
    "地址":"臺北市中正區網溪里牯嶺街165號"
    }
  },
  {
    "type": "Feature",
    "geometry": {
       "type": "Point",
       "coordinates":  [ 121.520958,25.024592 ]
    },
    "properties": {
    "區別":"中正區",
    "里別":"板溪里",
    "地址":"臺北市中正區板溪里汀州路2段151號"
    }
  },
  {
    "type": "Feature",
    "geometry": {
       "type": "Point",
       "coordinates":  [ 121.516807,25.025311 ]
    },
    "properties": {
    "區別":"中正區",
    "里別":"螢圃里",
    "地址":"臺北市中正區螢圃里重慶南路3段83巷3號"
    }
  },
  {
    "type": "Feature",
    "geometry": {
       "type": "Point",
       "coordinates":  [ 121.514362,25.026704 ]
    },
    "properties": {
    "區別":"中正區",
    "里別":"螢雪里",
    "地址":"臺北市中正區螢雪里福州街59號"
    }
  },
  {
    "type": "Feature",
    "geometry": {
       "type": "Point",
       "coordinates":  [ 121.505323,25.029507 ]
    },
    "properties": {
    "區別":"中正區",
    "里別":"忠勤里",
    "地址":"臺北市中正區忠勤里中華路2段303巷14號"
    }
  },
  {
    "type": "Feature",
    "geometry": {
       "type": "Point",
       "coordinates":  [ 121.51222,25.026556 ]
    },
    "properties": {
    "區別":"中正區",
    "里別":"永功里",
    "地址":"臺北市中正區永功里汀州路1段324號"
    }
  },
  {
    "type": "Feature",
    "geometry": {
       "type": "Point",
       "coordinates":  [ 121.509839,25.027093 ]
    },
    "properties": {
    "區別":"中正區",
    "里別":"永昌里",
    "地址":"臺北市中正區永昌里汀州路1段242巷17號"
    }
  },
  {
    "type": "Feature",
    "geometry": {
       "type": "Point",
       "coordinates":  [ 121.516031,25.030277 ]
    },
    "properties": {
    "區別":"中正區",
    "里別":"龍福里",
    "地址":"臺北市中正區龍福里牯嶺街28之1號"
    }
  },
  {
    "type": "Feature",
    "geometry": {
       "type": "Point",
       "coordinates":  [ 121.506665,25.033806 ]
    },
    "properties": {
    "區別":"中正區",
    "里別":"愛國里",
    "地址":"臺北市中正區愛國里中華路2段75巷11號"
    }
  },
  {
    "type": "Feature",
    "geometry": {
       "type": "Point",
       "coordinates":  [ 121.510131,25.046123 ]
    },
    "properties": {
    "區別":"中正區",
    "里別":"光復里",
    "地址":"臺北市中正區光復里開封街1段105之2號"
    }
  },
  {
    "type": "Feature",
    "geometry": {
       "type": "Point",
       "coordinates":  [ 121.524635,25.038574 ]
    },
    "properties": {
    "區別":"中正區",
    "里別":"東門里",
    "地址":"臺北市中正區東門里仁愛路1段53號"
    }
  },
  {
    "type": "Feature",
    "geometry": {
       "type": "Point",
       "coordinates":  [ 121.525962,25.03919 ]
    },
    "properties": {
    "區別":"中正區",
    "里別":"文北里",
    "地址":"臺北市中正區文北里杭州南路1段77巷3號"
    }
  },
  {
    "type": "Feature",
    "geometry": {
       "type": "Point",
       "coordinates":  [ 121.526515,25.036137 ]
    },
    "properties": {
    "區別":"中正區",
    "里別":"文祥里",
    "地址":"臺北市中正區文祥里杭州南路1段131巷22號"
    }
  },
  {
    "type": "Feature",
    "geometry": {
       "type": "Point",
       "coordinates":  [ 121.515933,25.063851 ]
    },
    "properties": {
    "區別":"大同區",
    "里別":"蓬萊里",
    "地址":"臺北市大同區蓬萊里大龍街26號"
    }
  },
  {
    "type": "Feature",
    "geometry": {
       "type": "Point",
       "coordinates":  [ 121.515079,25.067179 ]
    },
    "properties": {
    "區別":"大同區",
    "里別":"揚雅里",
    "地址":"臺北市大同區揚雅里重慶北路3段113巷30弄1號"
    }
  },
  {
    "type": "Feature",
    "geometry": {
       "type": "Point",
       "coordinates":  [ 121.516556,25.067475 ]
    },
    "properties": {
    "區別":"大同區",
    "里別":"斯文里",
    "地址":"臺北市大同區斯文里大龍街159巷18弄16號"
    }
  },
  {
    "type": "Feature",
    "geometry": {
       "type": "Point",
       "coordinates":  [ 121.510298,25.064944 ]
    },
    "properties": {
    "區別":"大同區",
    "里別":"景星里",
    "地址":"臺北市大同區景星里伊寧街75巷4號"
    }
  },
  {
    "type": "Feature",
    "geometry": {
       "type": "Point",
       "coordinates":  [ 121.512588,25.06511 ]
    },
    "properties": {
    "區別":"大同區",
    "里別":"隆和里",
    "地址":"臺北市大同區隆和里景化街46號"
    }
  },
  {
    "type": "Feature",
    "geometry": {
       "type": "Point",
       "coordinates":  [ 121.510497,25.067632 ]
    },
    "properties": {
    "區別":"大同區",
    "里別":"國順里",
    "地址":"臺北市大同區國順里迪化街2段163號"
    }
  },
  {
    "type": "Feature",
    "geometry": {
       "type": "Point",
       "coordinates":  [ 121.512111,25.068536 ]
    },
    "properties": {
    "區別":"大同區",
    "里別":"國慶里",
    "地址":"臺北市大同區國慶里民族西路260號"
    }
  },
  {
    "type": "Feature",
    "geometry": {
       "type": "Point",
       "coordinates":  [ 121.511773,25.072013 ]
    },
    "properties": {
    "區別":"大同區",
    "里別":"鄰江里",
    "地址":"臺北市大同區鄰江里酒泉街164號"
    }
  },
  {
    "type": "Feature",
    "geometry": {
       "type": "Point",
       "coordinates":  [ 121.513106,25.072811 ]
    },
    "properties": {
    "區別":"大同區",
    "里別":"老師里",
    "地址":"臺北市大同區老師里哈密街158號"
    }
  },
  {
    "type": "Feature",
    "geometry": {
       "type": "Point",
       "coordinates":  [ 121.515462,25.052941 ]
    },
    "properties": {
    "區別":"大同區",
    "里別":"建功里",
    "地址":"臺北市大同區建功里重慶北路1段83巷37號"
    }
  },
  {
    "type": "Feature",
    "geometry": {
       "type": "Point",
       "coordinates":  [ 121.517876,25.052351 ]
    },
    "properties": {
    "區別":"大同區",
    "里別":"建泰里",
    "地址":"臺北市大同區建泰里承德路1段79巷7號"
    }
  },
  {
    "type": "Feature",
    "geometry": {
       "type": "Point",
       "coordinates":  [ 121.517597,25.055317 ]
    },
    "properties": {
    "區別":"大同區",
    "里別":"星明里",
    "地址":"臺北市大同區星明里太原路161巷4號"
    }
  },
  {
    "type": "Feature",
    "geometry": {
       "type": "Point",
       "coordinates":  [ 121.519414,25.057088 ]
    },
    "properties": {
    "區別":"大同區",
    "里別":"光能里",
    "地址":"臺北市大同區光能里赤峰街44巷13號"
    }
  },
  {
    "type": "Feature",
    "geometry": {
       "type": "Point",
       "coordinates":  [ 121.514798,25.058293 ]
    },
    "properties": {
    "區別":"大同區",
    "里別":"雙連里",
    "地址":"臺北市大同區雙連里歸綏街126號"
    }
  },
  {
    "type": "Feature",
    "geometry": {
       "type": "Point",
       "coordinates":  [ 121.514504,25.060637 ]
    },
    "properties": {
    "區別":"大同區",
    "里別":"民權里",
    "地址":"臺北市大同區民權里寧夏路131號"
    }
  },
  {
    "type": "Feature",
    "geometry": {
       "type": "Point",
       "coordinates":  [ 121.508655,25.05224 ]
    },
    "properties": {
    "區別":"大同區",
    "里別":"玉泉里",
    "地址":"臺北市大同區玉泉里西寧北路11號"
    }
  },
  {
    "type": "Feature",
    "geometry": {
       "type": "Point",
       "coordinates":  [ 121.509219,25.053775 ]
    },
    "properties": {
    "區別":"大同區",
    "里別":"永樂里",
    "地址":"臺北市大同區永樂里南京西路239巷31號"
    }
  },
  {
    "type": "Feature",
    "geometry": {
       "type": "Point",
       "coordinates":  [ 121.513783,25.055284 ]
    },
    "properties": {
    "區別":"大同區",
    "里別":"朝陽里",
    "地址":"臺北市大同區朝陽里重慶北路2段46巷6號"
    }
  },
  {
    "type": "Feature",
    "geometry": {
       "type": "Point",
       "coordinates":  [ 121.510566,25.059514 ]
    },
    "properties": {
    "區別":"大同區",
    "里別":"大有里",
    "地址":"臺北市大同區大有里民樂街115號"
    }
  },
  {
    "type": "Feature",
    "geometry": {
       "type": "Point",
       "coordinates":  [ 121.512796,25.058512 ]
    },
    "properties": {
    "區別":"大同區",
    "里別":"延平里",
    "地址":"臺北市大同區延平里甘州街12號"
    }
  },
  {
    "type": "Feature",
    "geometry": {
       "type": "Point",
       "coordinates":  [ 121.508913,25.061767 ]
    },
    "properties": {
    "區別":"大同區",
    "里別":"南芳里",
    "地址":"臺北市大同區南芳里迪化街1段312巷7號"
    }
  },
  {
    "type": "Feature",
    "geometry": {
       "type": "Point",
       "coordinates":  [ 121.50528,25.042153 ]
    },
    "properties": {
    "區別":"萬華區",
    "里別":"西門里",
    "地址":"臺北市萬華區西門里內江街55巷9號"
    }
  },
  {
    "type": "Feature",
    "geometry": {
       "type": "Point",
       "coordinates":  [ 121.503807,25.039878 ]
    },
    "properties": {
    "區別":"萬華區",
    "里別":"新起里",
    "地址":"臺北市萬華區新起里貴陽街2段87號"
    }
  },
  {
    "type": "Feature",
    "geometry": {
       "type": "Point",
       "coordinates":  [ 121.501489,25.04168 ]
    },
    "properties": {
    "區別":"萬華區",
    "里別":"菜園里",
    "地址":"臺北市萬華區菜園里內江街150號"
    }
  },
  {
    "type": "Feature",
    "geometry": {
       "type": "Point",
       "coordinates":  [ 121.499057,25.038712 ]
    },
    "properties": {
    "區別":"萬華區",
    "里別":"青山里",
    "地址":"臺北市萬華區青山里華西街21巷9號"
    }
  },
  {
    "type": "Feature",
    "geometry": {
       "type": "Point",
       "coordinates":  [ 121.501825,25.039557 ]
    },
    "properties": {
    "區別":"萬華區",
    "里別":"富民里",
    "地址":"臺北市萬華區富民里康定路160號"
    }
  },
  {
    "type": "Feature",
    "geometry": {
       "type": "Point",
       "coordinates":  [ 121.502786,25.038883 ]
    },
    "properties": {
    "區別":"萬華區",
    "里別":"福音里",
    "地址":"臺北市萬華區福音里永福街77號"
    }
  },
  {
    "type": "Feature",
    "geometry": {
       "type": "Point",
       "coordinates":  [ 121.506166,25.039108 ]
    },
    "properties": {
    "區別":"萬華區",
    "里別":"仁德里",
    "地址":"臺北市萬華區仁德里西寧南路192之2號"
    }
  },
  {
    "type": "Feature",
    "geometry": {
       "type": "Point",
       "coordinates":  [ 121.494251,25.036863 ]
    },
    "properties": {
    "區別":"萬華區",
    "里別":"柳鄉里",
    "地址":"臺北市萬華區柳鄉里環河南路2段130巷12號"
    }
  },
  {
    "type": "Feature",
    "geometry": {
       "type": "Point",
       "coordinates":  [ 121.501829,25.03275 ]
    },
    "properties": {
    "區別":"萬華區",
    "里別":"頂碩里",
    "地址":"臺北市萬華區頂碩里艋舺大道120巷16弄2號"
    }
  },
  {
    "type": "Feature",
    "geometry": {
       "type": "Point",
       "coordinates":  [ 121.500401,25.030187 ]
    },
    "properties": {
    "區別":"萬華區",
    "里別":"雙園里",
    "地址":"臺北市萬華區雙園里萬大路96號"
    }
  },
  {
    "type": "Feature",
    "geometry": {
       "type": "Point",
       "coordinates":  [ 121.497876,25.034221 ]
    },
    "properties": {
    "區別":"萬華區",
    "里別":"糖?里",
    "地址":"臺北市萬華區糖?里大理街106號"
    }
  },
  {
    "type": "Feature",
    "geometry": {
       "type": "Point",
       "coordinates":  [ 121.495479,25.032131 ]
    },
    "properties": {
    "區別":"萬華區",
    "里別":"和平里",
    "地址":"臺北市萬華區和平里艋舺大道362號"
    }
  },
  {
    "type": "Feature",
    "geometry": {
       "type": "Point",
       "coordinates":  [ 121.492148,25.030962 ]
    },
    "properties": {
    "區別":"萬華區",
    "里別":"綠堤里",
    "地址":"臺北市萬華區綠堤里雙園街122巷14號"
    }
  },
  {
    "type": "Feature",
    "geometry": {
       "type": "Point",
       "coordinates":  [ 121.495636,25.025047 ]
    },
    "properties": {
    "區別":"萬華區",
    "里別":"忠德里",
    "地址":"臺北市萬華區忠德里東園街66巷24弄1號"
    }
  },
  {
    "type": "Feature",
    "geometry": {
       "type": "Point",
       "coordinates":  [ 121.492269,25.022459 ]
    },
    "properties": {
    "區別":"萬華區",
    "里別":"孝德里",
    "地址":"臺北市萬華區孝德里德昌街261巷16號"
    }
  },
  {
    "type": "Feature",
    "geometry": {
       "type": "Point",
       "coordinates":  [ 121.491133,25.025319 ]
    },
    "properties": {
    "區別":"萬華區",
    "里別":"和德里",
    "地址":"臺北市萬華區和德里西園路2段372巷10號"
    }
  },
  {
    "type": "Feature",
    "geometry": {
       "type": "Point",
       "coordinates":  [ 121.493887,25.025732 ]
    },
    "properties": {
    "區別":"萬華區",
    "里別":"錦德里",
    "地址":"臺北市萬華區錦德里寶興街80巷18號"
    }
  },
  {
    "type": "Feature",
    "geometry": {
       "type": "Point",
       "coordinates":  [ 121.499359,25.025188 ]
    },
    "properties": {
    "區別":"萬華區",
    "里別":"全德里",
    "地址":"臺北市萬華區全德里德昌街21號"
    }
  },
  {
    "type": "Feature",
    "geometry": {
       "type": "Point",
       "coordinates":  [ 121.497054,25.023314 ]
    },
    "properties": {
    "區別":"萬華區",
    "里別":"保德里",
    "地址":"臺北市萬華區保德里東園街140巷10號"
    }
  },
  {
    "type": "Feature",
    "geometry": {
       "type": "Point",
       "coordinates":  [ 121.495144,25.021597 ]
    },
    "properties": {
    "區別":"萬華區",
    "里別":"銘德里",
    "地址":"臺北市萬華區銘德里長泰街219號"
    }
  },
  {
    "type": "Feature",
    "geometry": {
       "type": "Point",
       "coordinates":  [ 121.495109,25.020555 ]
    },
    "properties": {
    "區別":"萬華區",
    "里別":"榮德里",
    "地址":"臺北市萬華區榮德里武成街80巷61號"
    }
  },
  {
    "type": "Feature",
    "geometry": {
       "type": "Point",
       "coordinates":  [ 121.500326,25.023141 ]
    },
    "properties": {
    "區別":"萬華區",
    "里別":"壽德里",
    "地址":"臺北市萬華區壽德里長泰街45號1樓"
    }
  },
  {
    "type": "Feature",
    "geometry": {
       "type": "Point",
       "coordinates":  [ 121.499249,25.020015 ]
    },
    "properties": {
    "區別":"萬華區",
    "里別":"興德里",
    "地址":"臺北市萬華區興德里萬大路449巷28弄7號"
    }
  },
  {
    "type": "Feature",
    "geometry": {
       "type": "Point",
       "coordinates":  [ 121.495544,25.019306 ]
    },
    "properties": {
    "區別":"萬華區",
    "里別":"華中里",
    "地址":"臺北市萬華區華中里萬大路534巷42號"
    }
  },
  {
    "type": "Feature",
    "geometry": {
       "type": "Point",
       "coordinates":  [ 121.50233,25.028797 ]
    },
    "properties": {
    "區別":"萬華區",
    "里別":"新忠里",
    "地址":"臺北市萬華區新忠里西藏路125巷7號"
    }
  },
  {
    "type": "Feature",
    "geometry": {
       "type": "Point",
       "coordinates":  [ 121.5042,25.027007 ]
    },
    "properties": {
    "區別":"萬華區",
    "里別":"新和里",
    "地址":"臺北市萬華區新和里中華路2段416巷13之1號"
    }
  },
  {
    "type": "Feature",
    "geometry": {
       "type": "Point",
       "coordinates":  [ 121.500897,25.028246 ]
    },
    "properties": {
    "區別":"萬華區",
    "里別":"新安里",
    "地址":"臺北市萬華區新安里萬大路187巷1弄9號"
    }
  },
  {
    "type": "Feature",
    "geometry": {
       "type": "Point",
       "coordinates":  [ 121.501707,25.023947 ]
    },
    "properties": {
    "區別":"萬華區",
    "里別":"忠貞里",
    "地址":"臺北市萬華區忠貞里萬青街115號"
    }
  },
  {
    "type": "Feature",
    "geometry": {
       "type": "Point",
       "coordinates":  [ 121.50776,25.025253 ]
    },
    "properties": {
    "區別":"萬華區",
    "里別":"凌霄里",
    "地址":"臺北市萬華區凌霄里中華路2段504巷20號"
    }
  },
  {
    "type": "Feature",
    "geometry": {
       "type": "Point",
       "coordinates":  [ 121.508808,25.024232 ]
    },
    "properties": {
    "區別":"萬華區",
    "里別":"騰雲里",
    "地址":"臺北市萬華區騰雲里國興路1巷2之4號"
    }
  },
  {
    "type": "Feature",
    "geometry": {
       "type": "Point",
       "coordinates":  [ 121.544999,24.993896 ]
    },
    "properties": {
    "區別":"文山區",
    "里別":"景東里",
    "地址":"臺北市文山區景東里景興路153巷1號"
    }
  },
  {
    "type": "Feature",
    "geometry": {
       "type": "Point",
       "coordinates":  [ 121.540596,24.993483 ]
    },
    "properties": {
    "區別":"文山區",
    "里別":"景慶里",
    "地址":"臺北市文山區景慶里景福街281號"
    }
  },
  {
    "type": "Feature",
    "geometry": {
       "type": "Point",
       "coordinates":  [ 121.53921,24.998955 ]
    },
    "properties": {
    "區別":"文山區",
    "里別":"景仁里",
    "地址":"臺北市文山區景仁里景福街21巷3弄11號"
    }
  },
  {
    "type": "Feature",
    "geometry": {
       "type": "Point",
       "coordinates":  [ 121.542253,24.993736 ]
    },
    "properties": {
    "區別":"文山區",
    "里別":"景華里",
    "地址":"臺北市文山區景華里景華街22巷16號"
    }
  },
  {
    "type": "Feature",
    "geometry": {
       "type": "Point",
       "coordinates":  [ 121.544032,24.999137 ]
    },
    "properties": {
    "區別":"文山區",
    "里別":"萬有里",
    "地址":"臺北市文山區萬有里興隆路1段238之1號"
    }
  },
  {
    "type": "Feature",
    "geometry": {
       "type": "Point",
       "coordinates":  [ 121.538033,25.000253 ]
    },
    "properties": {
    "區別":"文山區",
    "里別":"萬隆里",
    "地址":"臺北市文山區萬隆里萬隆街25號"
    }
  },
  {
    "type": "Feature",
    "geometry": {
       "type": "Point",
       "coordinates":  [ 121.538089,25.006405 ]
    },
    "properties": {
    "區別":"文山區",
    "里別":"萬年里",
    "地址":"臺北市文山區萬年里羅斯福路5段150巷35號"
    }
  },
  {
    "type": "Feature",
    "geometry": {
       "type": "Point",
       "coordinates":  [ 121.549886,25.001338 ]
    },
    "properties": {
    "區別":"文山區",
    "里別":"興邦里",
    "地址":"臺北市文山區興邦里興隆路2段203巷2弄10號"
    }
  },
  {
    "type": "Feature",
    "geometry": {
       "type": "Point",
       "coordinates":  [ 121.560352,24.996662 ]
    },
    "properties": {
    "區別":"文山區",
    "里別":"興光里",
    "地址":"臺北市文山區興光里興隆路3段181巷1弄7號"
    }
  },
  {
    "type": "Feature",
    "geometry": {
       "type": "Point",
       "coordinates":  [ 121.559497,24.993975 ]
    },
    "properties": {
    "區別":"文山區",
    "里別":"興家里",
    "地址":"臺北市文山區興家里興隆路3段223之2號"
    }
  },
  {
    "type": "Feature",
    "geometry": {
       "type": "Point",
       "coordinates":  [ 121.549241,24.999272 ]
    },
    "properties": {
    "區別":"文山區",
    "里別":"興安里",
    "地址":"臺北市文山區興安里仙岩路42號"
    }
  },
  {
    "type": "Feature",
    "geometry": {
       "type": "Point",
       "coordinates":  [ 121.551161,25.002804 ]
    },
    "properties": {
    "區別":"文山區",
    "里別":"興旺里",
    "地址":"臺北市文山區興旺里福興路27號"
    }
  },
  {
    "type": "Feature",
    "geometry": {
       "type": "Point",
       "coordinates":  [ 121.554234,25.001535 ]
    },
    "properties": {
    "區別":"文山區",
    "里別":"興泰里",
    "地址":"臺北市文山區興泰里辛亥路4段252巷5號"
    }
  },
  {
    "type": "Feature",
    "geometry": {
       "type": "Point",
       "coordinates":  [ 121.546174,24.986419 ]
    },
    "properties": {
    "區別":"文山區",
    "里別":"試院里",
    "地址":"臺北市文山區試院里和興路5號"
    }
  },
  {
    "type": "Feature",
    "geometry": {
       "type": "Point",
       "coordinates":  [ 121.554515,24.987995 ]
    },
    "properties": {
    "區別":"文山區",
    "里別":"華興里",
    "地址":"臺北市文山區華興里木柵路1段264號"
    }
  },
  {
    "type": "Feature",
    "geometry": {
       "type": "Point",
       "coordinates":  [ 121.559111,24.989003 ]
    },
    "properties": {
    "區別":"文山區",
    "里別":"明義里",
    "地址":"臺北市文山區明義里木柵路2段7巷7號"
    }
  },
  {
    "type": "Feature",
    "geometry": {
       "type": "Point",
       "coordinates":  [ 121.562853,24.990127 ]
    },
    "properties": {
    "區別":"文山區",
    "里別":"明興里",
    "地址":"臺北市文山區明興里木柵路2段109巷25弄6號"
    }
  },
  {
    "type": "Feature",
    "geometry": {
       "type": "Point",
       "coordinates":  [ 121.569608,24.986837 ]
    },
    "properties": {
    "區別":"文山區",
    "里別":"木新里",
    "地址":"臺北市文山區木新里永安街22巷18號"
    }
  },
  {
    "type": "Feature",
    "geometry": {
       "type": "Point",
       "coordinates":  [ 121.563118,24.985178 ]
    },
    "properties": {
    "區別":"文山區",
    "里別":"忠順里",
    "地址":"臺北市文山區忠順里興隆路4段145巷30號"
    }
  },
  {
    "type": "Feature",
    "geometry": {
       "type": "Point",
       "coordinates":  [ 121.560063,24.984655 ]
    },
    "properties": {
    "區別":"文山區",
    "里別":"樟林里",
    "地址":"臺北市文山區樟林里興隆路4段66巷32號"
    }
  },
  {
    "type": "Feature",
    "geometry": {
       "type": "Point",
       "coordinates":  [ 121.557513,24.981739 ]
    },
    "properties": {
    "區別":"文山區",
    "里別":"樟文里",
    "地址":"臺北市文山區樟文里木新路3段278巷7弄6號"
    }
  },
  {
    "type": "Feature",
    "geometry": {
       "type": "Point",
       "coordinates":  [ 121.560721,24.983906 ]
    },
    "properties": {
    "區別":"文山區",
    "里別":"樟樹里",
    "地址":"臺北市文山區樟樹里興隆路4段74巷22號"
    }
  },
  {
    "type": "Feature",
    "geometry": {
       "type": "Point",
       "coordinates":  [ 121.575892,24.990416 ]
    },
    "properties": {
    "區別":"文山區",
    "里別":"萬興里",
    "地址":"臺北市文山區萬興里秀明路2段112巷14號"
    }
  },
  {
    "type": "Feature",
    "geometry": {
       "type": "Point",
       "coordinates":  [ 121.580053,24.985819 ]
    },
    "properties": {
    "區別":"文山區",
    "里別":"政大里",
    "地址":"臺北市文山區政大里政大1街3號"
    }
  },
  {
    "type": "Feature",
    "geometry": {
       "type": "Point",
       "coordinates":  [ 121.583515,24.977268 ]
    },
    "properties": {
    "區別":"文山區",
    "里別":"指南里",
    "地址":"臺北市文山區指南里指南路3段38巷3號"
    }
  },
  {
    "type": "Feature",
    "geometry": {
       "type": "Point",
       "coordinates":  [ 121.562225,25.003106 ]
    },
    "properties": {
    "區別":"文山區",
    "里別":"萬美里",
    "地址":"臺北市文山區萬美里萬美街2段2巷6號"
    }
  },
  {
    "type": "Feature",
    "geometry": {
       "type": "Point",
       "coordinates":  [ 121.57549,24.99973 ]
    },
    "properties": {
    "區別":"文山區",
    "里別":"博嘉里",
    "地址":"臺北市文山區博嘉里木柵路4段157之1號"
    }
  },
  {
    "type": "Feature",
    "geometry": {
       "type": "Point",
       "coordinates":  [ 121.614449,25.053156 ]
    },
    "properties": {
    "區別":"南港區",
    "里別":"中南里",
    "地址":"臺北市南港區中南里忠孝東路7段585號"
    }
  },
  {
    "type": "Feature",
    "geometry": {
       "type": "Point",
       "coordinates":  [ 121.617347,25.053703 ]
    },
    "properties": {
    "區別":"南港區",
    "里別":"新富里",
    "地址":"臺北市南港區新富里富康街25號"
    }
  },
  {
    "type": "Feature",
    "geometry": {
       "type": "Point",
       "coordinates":  [ 121.612532,25.060805 ]
    },
    "properties": {
    "區別":"南港區",
    "里別":"三重里",
    "地址":"臺北市南港區三重里重陽路504巷1弄9號"
    }
  },
  {
    "type": "Feature",
    "geometry": {
       "type": "Point",
       "coordinates":  [ 121.601284,25.056198 ]
    },
    "properties": {
    "區別":"南港區",
    "里別":"東新里",
    "地址":"臺北市南港區東新里興南街43號"
    }
  },
  {
    "type": "Feature",
    "geometry": {
       "type": "Point",
       "coordinates":  [ 121.59892,25.057488 ]
    },
    "properties": {
    "區別":"南港區",
    "里別":"重陽里",
    "地址":"臺北市南港區重陽里重陽路199巷24之2號"
    }
  },
  {
    "type": "Feature",
    "geometry": {
       "type": "Point",
       "coordinates":  [ 121.592476,25.049319 ]
    },
    "properties": {
    "區別":"南港區",
    "里別":"新光里",
    "地址":"臺北市南港區新光里昆陽街140巷42弄4號"
    }
  },
  {
    "type": "Feature",
    "geometry": {
       "type": "Point",
       "coordinates":  [ 121.601684,25.053573 ]
    },
    "properties": {
    "區別":"南港區",
    "里別":"東明里",
    "地址":"臺北市南港區東明里南港路2段128號"
    }
  },
  {
    "type": "Feature",
    "geometry": {
       "type": "Point",
       "coordinates":  [ 121.581267,25.051969 ]
    },
    "properties": {
    "區別":"南港區",
    "里別":"玉成里",
    "地址":"臺北市南港區玉成里南港路三段314巷5號"
    }
  },
  {
    "type": "Feature",
    "geometry": {
       "type": "Point",
       "coordinates":  [ 121.588453,25.049826 ]
    },
    "properties": {
    "區別":"南港區",
    "里別":"合成里",
    "地址":"臺北市南港區合成里忠孝東路六段225巷1弄3號"
    }
  },
  {
    "type": "Feature",
    "geometry": {
       "type": "Point",
       "coordinates":  [ 121.587743,25.045967 ]
    },
    "properties": {
    "區別":"南港區",
    "里別":"成福里",
    "地址":"臺北市南港區成福里東新街80巷9弄11號"
    }
  },
  {
    "type": "Feature",
    "geometry": {
       "type": "Point",
       "coordinates":  [ 121.58475,25.046047 ]
    },
    "properties": {
    "區別":"南港區",
    "里別":"萬福里",
    "地址":"臺北市南港區萬福里忠孝東路6段70巷21弄8號"
    }
  },
  {
    "type": "Feature",
    "geometry": {
       "type": "Point",
       "coordinates":  [ 121.586558,25.043854 ]
    },
    "properties": {
    "區別":"南港區",
    "里別":"鴻福里",
    "地址":"臺北市南港區鴻福里成福路82號"
    }
  },
  {
    "type": "Feature",
    "geometry": {
       "type": "Point",
       "coordinates":  [ 121.588463,25.039435 ]
    },
    "properties": {
    "區別":"南港區",
    "里別":"百福里",
    "地址":"臺北市南港區百福里福德街337號"
    }
  },
  {
    "type": "Feature",
    "geometry": {
       "type": "Point",
       "coordinates":  [ 121.588339,25.047614 ]
    },
    "properties": {
    "區別":"南港區",
    "里別":"聯成里",
    "地址":"臺北市南港區聯成里東新街77巷25號"
    }
  },
  {
    "type": "Feature",
    "geometry": {
       "type": "Point",
       "coordinates":  [ 121.615452,25.048001 ]
    },
    "properties": {
    "區別":"南港區",
    "里別":"中研里",
    "地址":"臺北市南港區中研里研究院路2段2巷2號"
    }
  },
  {
    "type": "Feature",
    "geometry": {
       "type": "Point",
       "coordinates":  [ 121.607813,25.070476 ]
    },
    "properties": {
    "區別":"內湖區",
    "里別":"葫洲里",
    "地址":"臺北市內湖區葫洲里民權東路6段280巷60號"
    }
  },
  {
    "type": "Feature",
    "geometry": {
       "type": "Point",
       "coordinates":  [ 121.609057,25.068285 ]
    },
    "properties": {
    "區別":"內湖區",
    "里別":"南湖里",
    "地址":"臺北市內湖區南湖里康寧路3段56巷130號"
    }
  },
  {
    "type": "Feature",
    "geometry": {
       "type": "Point",
       "coordinates":  [ 121.613248,25.065967 ]
    },
    "properties": {
    "區別":"內湖區",
    "里別":"五分里",
    "地址":"臺北市內湖區五分里安康路388號1樓"
    }
  },
  {
    "type": "Feature",
    "geometry": {
       "type": "Point",
       "coordinates":  [ 121.616704,25.070903 ]
    },
    "properties": {
    "區別":"內湖區",
    "里別":"東湖里",
    "地址":"臺北市內湖區東湖里康樂街72巷17弄63號"
    }
  },
  {
    "type": "Feature",
    "geometry": {
       "type": "Point",
       "coordinates":  [ 121.621708,25.075689 ]
    },
    "properties": {
    "區別":"內湖區",
    "里別":"內溝里",
    "地址":"臺北市內湖區內溝里康樂街201巷8號"
    }
  },
  {
    "type": "Feature",
    "geometry": {
       "type": "Point",
       "coordinates":  [ 121.614511,25.069577 ]
    },
    "properties": {
    "區別":"內湖區",
    "里別":"安湖里",
    "地址":"臺北市內湖區安湖里東湖路113巷95弄166號"
    }
  },
  {
    "type": "Feature",
    "geometry": {
       "type": "Point",
       "coordinates":  [ 121.617569,25.074089 ]
    },
    "properties": {
    "區別":"內湖區",
    "里別":"安泰里",
    "地址":"臺北市內湖區安泰里安泰街49巷1號"
    }
  },
  {
    "type": "Feature",
    "geometry": {
       "type": "Point",
       "coordinates":  [ 121.605872,25.074021 ]
    },
    "properties": {
    "區別":"內湖區",
    "里別":"金湖里",
    "地址":"臺北市內湖區金湖里成功路5段71號"
    }
  },
  {
    "type": "Feature",
    "geometry": {
       "type": "Point",
       "coordinates":  [ 121.610632,25.074306 ]
    },
    "properties": {
    "區別":"內湖區",
    "里別":"康寧里",
    "地址":"臺北市內湖區康寧里康寧路3段99巷39弄70號"
    }
  },
  {
    "type": "Feature",
    "geometry": {
       "type": "Point",
       "coordinates":  [ 121.610172,25.072248 ]
    },
    "properties": {
    "區別":"內湖區",
    "里別":"明湖里",
    "地址":"臺北市內湖區明湖里康寧路3段99巷25號"
    }
  },
  {
    "type": "Feature",
    "geometry": {
       "type": "Point",
       "coordinates":  [ 121.597397,25.062326 ]
    },
    "properties": {
    "區別":"內湖區",
    "里別":"蘆洲里",
    "地址":"臺北市內湖區蘆洲里安康路95號"
    }
  },
  {
    "type": "Feature",
    "geometry": {
       "type": "Point",
       "coordinates":  [ 121.567722,25.083019 ]
    },
    "properties": {
    "區別":"內湖區",
    "里別":"西康里",
    "地址":"臺北市內湖區西康里內湖路1段61巷2號"
    }
  },
  {
    "type": "Feature",
    "geometry": {
       "type": "Point",
       "coordinates":  [ 121.560362,25.085153 ]
    },
    "properties": {
    "區別":"內湖區",
    "里別":"西安里",
    "地址":"臺北市內湖區西安里內湖路1段91巷110號"
    }
  },
  {
    "type": "Feature",
    "geometry": {
       "type": "Point",
       "coordinates":  [ 121.562859,25.087832 ]
    },
    "properties": {
    "區別":"內湖區",
    "里別":"港都里",
    "地址":"臺北市內湖區港都里內湖路1段629巷47號"
    }
  },
  {
    "type": "Feature",
    "geometry": {
       "type": "Point",
       "coordinates":  [ 121.580556,25.080853 ]
    },
    "properties": {
    "區別":"內湖區",
    "里別":"港富里",
    "地址":"臺北市內湖區港富里麗山街47號"
    }
  },
  {
    "type": "Feature",
    "geometry": {
       "type": "Point",
       "coordinates":  [ 121.575786,25.083437 ]
    },
    "properties": {
    "區別":"內湖區",
    "里別":"港華里",
    "地址":"臺北市內湖區港華里港華街51巷3弄1號1樓"
    }
  },
  {
    "type": "Feature",
    "geometry": {
       "type": "Point",
       "coordinates":  [ 121.571905,25.084143 ]
    },
    "properties": {
    "區別":"內湖區",
    "里別":"麗山里",
    "地址":"臺北市內湖區麗山里內湖路1段411巷78號1樓"
    }
  },
  {
    "type": "Feature",
    "geometry": {
       "type": "Point",
       "coordinates":  [ 121.591059,25.079961 ]
    },
    "properties": {
    "區別":"內湖區",
    "里別":"紫星里",
    "地址":"臺北市內湖區紫星里成功路3段187巷3弄4號"
    }
  },
  {
    "type": "Feature",
    "geometry": {
       "type": "Point",
       "coordinates":  [ 121.596052,25.078251 ]
    },
    "properties": {
    "區別":"內湖區",
    "里別":"紫雲里",
    "地址":"臺北市內湖區紫雲里康寧路1段228號1樓"
    }
  },
  {
    "type": "Feature",
    "geometry": {
       "type": "Point",
       "coordinates":  [ 121.584713,25.077095 ]
    },
    "properties": {
    "區別":"內湖區",
    "里別":"紫陽里",
    "地址":"臺北市內湖區紫陽里文德路210巷30弄27號"
    }
  },
  {
    "type": "Feature",
    "geometry": {
       "type": "Point",
       "coordinates":  [ 121.582387,25.076451 ]
    },
    "properties": {
    "區別":"內湖區",
    "里別":"瑞陽里",
    "地址":"臺北市內湖區瑞陽里文德路66巷69弄9號1樓"
    }
  },
  {
    "type": "Feature",
    "geometry": {
       "type": "Point",
       "coordinates":  [ 121.579833,25.073895 ]
    },
    "properties": {
    "區別":"內湖區",
    "里別":"瑞光里",
    "地址":"臺北市內湖區瑞光里陽光街291號1樓"
    }
  },
  {
    "type": "Feature",
    "geometry": {
       "type": "Point",
       "coordinates":  [ 121.5939,25.0858 ]
    },
    "properties": {
    "區別":"內湖區",
    "里別":"金龍里",
    "地址":"臺北市內湖區金龍里金龍路47巷20之1號"
    }
  },
  {
    "type": "Feature",
    "geometry": {
       "type": "Point",
       "coordinates":  [ 121.586927,25.088065 ]
    },
    "properties": {
    "區別":"內湖區",
    "里別":"金瑞里",
    "地址":"臺北市內湖區金瑞里金龍路218號1樓"
    }
  },
  {
    "type": "Feature",
    "geometry": {
       "type": "Point",
       "coordinates":  [ 121.599561,25.084294 ]
    },
    "properties": {
    "區別":"內湖區",
    "里別":"秀湖里",
    "地址":"臺北市內湖區秀湖里成功路4段323巷16號"
    }
  },
  {
    "type": "Feature",
    "geometry": {
       "type": "Point",
       "coordinates":  [ 121.589626,25.067657 ]
    },
    "properties": {
    "區別":"內湖區",
    "里別":"湖興里",
    "地址":"臺北市內湖區湖興里成功路2段320巷25號1樓"
    }
  },
  {
    "type": "Feature",
    "geometry": {
       "type": "Point",
       "coordinates":  [ 121.596696,25.067638 ]
    },
    "properties": {
    "區別":"內湖區",
    "里別":"寶湖里",
    "地址":"臺北市內湖區寶湖里民權東路6段208號"
    }
  },
  {
    "type": "Feature",
    "geometry": {
       "type": "Point",
       "coordinates":  [ 121.587628,25.066572 ]
    },
    "properties": {
    "區別":"內湖區",
    "里別":"湖元里",
    "地址":"臺北市內湖區湖元里民權東路6段136巷48號1樓"
    }
  },
  {
    "type": "Feature",
    "geometry": {
       "type": "Point",
       "coordinates":  [ 121.584101,25.057646 ]
    },
    "properties": {
    "區別":"內湖區",
    "里別":"週美里",
    "地址":"臺北市內湖區週美里南京東路6段330巷18弄12號1樓"
    }
  },
  {
    "type": "Feature",
    "geometry": {
       "type": "Point",
       "coordinates":  [ 121.52132,25.092343 ]
    },
    "properties": {
    "區別":"士林區",
    "里別":"福德里",
    "地址":"臺北市士林區士林區福德路81巷14號1樓"
    }
  },
  {
    "type": "Feature",
    "geometry": {
       "type": "Point",
       "coordinates":  [ 121.520089,25.087876 ]
    },
    "properties": {
    "區別":"士林區",
    "里別":"前港里",
    "地址":"臺北市士林區前港里大南路251巷18號1樓"
    }
  },
  {
    "type": "Feature",
    "geometry": {
       "type": "Point",
       "coordinates":  [ 121.51849,25.084412 ]
    },
    "properties": {
    "區別":"士林區",
    "里別":"百齡里",
    "地址":"臺北市士林區百齡里福港街259巷13弄10號1樓"
    }
  },
  {
    "type": "Feature",
    "geometry": {
       "type": "Point",
       "coordinates":  [ 121.520827,25.082741 ]
    },
    "properties": {
    "區別":"士林區",
    "里別":"承德里",
    "地址":"臺北市士林區承德里承德路4段58巷56弄1號"
    }
  },
  {
    "type": "Feature",
    "geometry": {
       "type": "Point",
       "coordinates":  [ 121.511474,25.082188 ]
    },
    "properties": {
    "區別":"士林區",
    "里別":"福順里",
    "地址":"臺北市士林區福順里延平北路5段136巷24號"
    }
  },
  {
    "type": "Feature",
    "geometry": {
       "type": "Point",
       "coordinates":  [ 121.508603,25.083801 ]
    },
    "properties": {
    "區別":"士林區",
    "里別":"葫蘆里",
    "地址":"臺北市士林區葫蘆里葫蘆街137號"
    }
  },
  {
    "type": "Feature",
    "geometry": {
       "type": "Point",
       "coordinates":  [ 121.511112,25.085034 ]
    },
    "properties": {
    "區別":"士林區",
    "里別":"葫東里",
    "地址":"臺北市士林區葫東里重慶北路4段215號"
    }
  },
  {
    "type": "Feature",
    "geometry": {
       "type": "Point",
       "coordinates":  [ 121.510711,25.088393 ]
    },
    "properties": {
    "區別":"士林區",
    "里別":"社子里",
    "地址":"臺北市士林區社子里社中街70號"
    }
  },
  {
    "type": "Feature",
    "geometry": {
       "type": "Point",
       "coordinates":  [ 121.483333,25.10585 ]
    },
    "properties": {
    "區別":"士林區",
    "里別":"富洲里",
    "地址":"臺北市士林區富洲里延平北路8段109號"
    }
  },
  {
    "type": "Feature",
    "geometry": {
       "type": "Point",
       "coordinates":  [ 121.533397,25.107551 ]
    },
    "properties": {
    "區別":"士林區",
    "里別":"岩山里",
    "地址":"臺北市士林區岩山里芝玉路1段197巷1號"
    }
  },
  {
    "type": "Feature",
    "geometry": {
       "type": "Point",
       "coordinates":  [ 121.53862,25.113505 ]
    },
    "properties": {
    "區別":"士林區",
    "里別":"東山里",
    "地址":"臺北市士林區東山里士東路320巷2號"
    }
  },
  {
    "type": "Feature",
    "geometry": {
       "type": "Point",
       "coordinates":  [ 121.527183,25.110423 ]
    },
    "properties": {
    "區別":"士林區",
    "里別":"蘭雅里",
    "地址":"臺北市士林區蘭雅里中山北路6段290巷7弄25號"
    }
  },
  {
    "type": "Feature",
    "geometry": {
       "type": "Point",
       "coordinates":  [ 121.527917,25.113752 ]
    },
    "properties": {
    "區別":"士林區",
    "里別":"天祿里",
    "地址":"臺北市士林區天祿里中山北路6段450巷10號"
    }
  },
  {
    "type": "Feature",
    "geometry": {
       "type": "Point",
       "coordinates":  [ 121.52671,25.115205 ]
    },
    "properties": {
    "區別":"士林區",
    "里別":"天壽里",
    "地址":"臺北市士林區天壽里中山北路6段405巷50號"
    }
  },
  {
    "type": "Feature",
    "geometry": {
       "type": "Point",
       "coordinates":  [ 121.526788,25.119031 ]
    },
    "properties": {
    "區別":"士林區",
    "里別":"天玉里",
    "地址":"臺北市士林區天玉里天母北路9巷6號1樓"
    }
  },
  {
    "type": "Feature",
    "geometry": {
       "type": "Point",
       "coordinates":  [ 121.531075,25.125473 ]
    },
    "properties": {
    "區別":"士林區",
    "里別":"天母里",
    "地址":"臺北市士林區天母里中山北路7段191巷23號"
    }
  },
  {
    "type": "Feature",
    "geometry": {
       "type": "Point",
       "coordinates":  [ 121.518817,25.104715 ]
    },
    "properties": {
    "區別":"北投區",
    "里別":"建民里",
    "地址":"臺北市北投區建民里文林北路36號"
    }
  },
  {
    "type": "Feature",
    "geometry": {
       "type": "Point",
       "coordinates":  [ 121.517389,25.107648 ]
    },
    "properties": {
    "區別":"北投區",
    "里別":"文林里",
    "地址":"臺北市北投區文林里致遠一路一段9號"
    }
  },
  {
    "type": "Feature",
    "geometry": {
       "type": "Point",
       "coordinates":  [ 121.517879,25.109848 ]
    },
    "properties": {
    "區別":"北投區",
    "里別":"石牌里",
    "地址":"臺北市北投區石牌里建民路116巷13號1樓"
    }
  },
  {
    "type": "Feature",
    "geometry": {
       "type": "Point",
       "coordinates":  [ 121.512703,25.110256 ]
    },
    "properties": {
    "區別":"北投區",
    "里別":"福興里",
    "地址":"臺北市北投區福興里自強街21號"
    }
  },
  {
    "type": "Feature",
    "geometry": {
       "type": "Point",
       "coordinates":  [ 121.515011,25.114032 ]
    },
    "properties": {
    "區別":"北投區",
    "里別":"榮光里",
    "地址":"臺北市北投區榮光里石牌路一段166巷43弄15號"
    }
  },
  {
    "type": "Feature",
    "geometry": {
       "type": "Point",
       "coordinates":  [ 121.521196,25.109781 ]
    },
    "properties": {
    "區別":"北投區",
    "里別":"榮華里",
    "地址":"臺北市北投區榮華里明德路136巷16號"
    }
  },
  {
    "type": "Feature",
    "geometry": {
       "type": "Point",
       "coordinates":  [ 121.520242,25.111515 ]
    },
    "properties": {
    "區別":"北投區",
    "里別":"裕民里",
    "地址":"臺北市北投區裕民里懷德街14巷17號"
    }
  },
  {
    "type": "Feature",
    "geometry": {
       "type": "Point",
       "coordinates":  [ 121.517899,25.115213 ]
    },
    "properties": {
    "區別":"北投區",
    "里別":"振華里",
    "地址":"臺北市北投區振華里裕民一路40巷37號"
    }
  },
  {
    "type": "Feature",
    "geometry": {
       "type": "Point",
       "coordinates":  [ 121.52795,25.126214 ]
    },
    "properties": {
    "區別":"北投區",
    "里別":"永和里",
    "地址":"臺北市北投區永和里行義路63號"
    }
  },
  {
    "type": "Feature",
    "geometry": {
       "type": "Point",
       "coordinates":  [ 121.52453,25.122598 ]
    },
    "properties": {
    "區別":"北投區",
    "里別":"永欣里",
    "地址":"臺北市北投區永欣里石牌路二段334-1號"
    }
  },
  {
    "type": "Feature",
    "geometry": {
       "type": "Point",
       "coordinates":  [ 121.515704,25.117395 ]
    },
    "properties": {
    "區別":"北投區",
    "里別":"永明里",
    "地址":"臺北市北投區永明里義理街65號"
    }
  },
  {
    "type": "Feature",
    "geometry": {
       "type": "Point",
       "coordinates":  [ 121.510246,25.116819 ]
    },
    "properties": {
    "區別":"北投區",
    "里別":"吉利里",
    "地址":"臺北市北投區吉利里石牌路一段39巷120弄7號"
    }
  },
  {
    "type": "Feature",
    "geometry": {
       "type": "Point",
       "coordinates":  [ 121.505687,25.117703 ]
    },
    "properties": {
    "區別":"北投區",
    "里別":"立賢里",
    "地址":"臺北市北投區立賢里尊賢街251巷18號"
    }
  },
  {
    "type": "Feature",
    "geometry": {
       "type": "Point",
       "coordinates":  [ 121.506164,25.119254 ]
    },
    "properties": {
    "區別":"北投區",
    "里別":"立農里",
    "地址":"臺北市北投區立農里吉利街123巷30號"
    }
  },
  {
    "type": "Feature",
    "geometry": {
       "type": "Point",
       "coordinates":  [ 121.49519,25.136562 ]
    },
    "properties": {
    "區別":"北投區",
    "里別":"豐年里",
    "地址":"臺北市北投區豐年里中央北路二段95巷1弄1號"
    }
  },
  {
    "type": "Feature",
    "geometry": {
       "type": "Point",
       "coordinates":  [ 121.485367,25.138558 ]
    },
    "properties": {
    "區別":"北投區",
    "里別":"桃源里",
    "地址":"臺北市北投區桃源里中央北路三段40巷7號"
    }
  },
  {
    "type": "Feature",
    "geometry": {
       "type": "Point",
       "coordinates":  [ 121.468394,25.121918 ]
    },
    "properties": {
    "區別":"北投區",
    "里別":"關渡里",
    "地址":"臺北市北投區關渡里知行路316巷20弄15號"
    }
  },
  {
    "type": "Feature",
    "geometry": {
       "type": "Point",
       "coordinates":  [ 121.508322,25.125817 ]
    },
    "properties": {
    "區別":"北投區",
    "里別":"奇岩里",
    "地址":"臺北市北投區奇岩里公館路249之1號"
    }
  },
  {
    "type": "Feature",
    "geometry": {
       "type": "Point",
       "coordinates":  [ 121.501912,25.127528 ]
    },
    "properties": {
    "區別":"北投區",
    "里別":"清江里",
    "地址":"臺北市北投區清江里清江路201號"
    }
  },
  {
    "type": "Feature",
    "geometry": {
       "type": "Point",
       "coordinates":  [ 121.49971,25.129589 ]
    },
    "properties": {
    "區別":"北投區",
    "里別":"中央里",
    "地址":"臺北市北投區中央里北投路1段93巷3號"
    }
  },
  {
    "type": "Feature",
    "geometry": {
       "type": "Point",
       "coordinates":  [ 121.498597,25.135002 ]
    },
    "properties": {
    "區別":"北投區",
    "里別":"大同里",
    "地址":"臺北市北投區大同里大同街135號"
    }
  },
  {
    "type": "Feature",
    "geometry": {
       "type": "Point",
       "coordinates":  [ 121.49902,25.13551 ]
    },
    "properties": {
    "區別":"北投區",
    "里別":"長安里",
    "地址":"臺北市北投區長安里大同街140號"
    }
  },
  {
    "type": "Feature",
    "geometry": {
       "type": "Point",
       "coordinates":  [ 121.505654,25.133801 ]
    },
    "properties": {
    "區別":"北投區",
    "里別":"溫泉里",
    "地址":"臺北市北投區溫泉里溫泉路68巷6弄15-2號"
    }
  },
  {
    "type": "Feature",
    "geometry": {
       "type": "Point",
       "coordinates":  [ 121.501926,25.137878 ]
    },
    "properties": {
    "區別":"北投區",
    "里別":"中心里",
    "地址":"臺北市北投區中心里珠海路15號"
    }
  },
  {
    "type": "Feature",
    "geometry": {
       "type": "Point",
       "coordinates":  [ 121.499726,25.138874 ]
    },
    "properties": {
    "區別":"北投區",
    "里別":"中庸里",
    "地址":"臺北市北投區中庸里永興路一段12號"
    }
  },
  {
    "type": "Feature",
    "geometry": {
       "type": "Point",
       "coordinates":  [ 121.501455,25.13986 ]
    },
    "properties": {
    "區別":"北投區",
    "里別":"開明里",
    "地址":"臺北市北投區開明里永興路二段8號"
    }
  },
  {
    "type": "Feature",
    "geometry": {
       "type": "Point",
       "coordinates":  [ 121.497904,25.144092 ]
    },
    "properties": {
    "區別":"北投區",
    "里別":"中和里",
    "地址":"臺北市北投區中和里中和街422號"
    }
  },
  {
    "type": "Feature",
    "geometry": {
       "type": "Point",
       "coordinates":  [ 121.495909,25.14292 ]
    },
    "properties": {
    "區別":"北投區",
    "里別":"智仁里",
    "地址":"臺北市北投區智仁里杏林二路74巷3號"
    }
  },
  {
    "type": "Feature",
    "geometry": {
       "type": "Point",
       "coordinates":  [ 121.494898,25.14558 ]
    },
    "properties": {
    "區別":"北投區",
    "里別":"秀山里",
    "地址":"臺北市北投區秀山里中和街502巷2弄11號"
    }
  },
  {
    "type": "Feature",
    "geometry": {
       "type": "Point",
       "coordinates":  [ 121.507704,25.11816 ]
    },
    "properties": {
    "區別":"北投區",
    "里別":"尊賢里",
    "地址":"臺北市北投區尊賢里尊賢街302巷19號"
    }
  }
]
}